{
  "features": [
    {
      "id": "0",
      "type": "Feature",
      "properties": {
        "category": "castle",
        "id": "1",
        "image": "",
        "name": "Grad Brdo pri Kranju",
        "region": "Gorenjska"
      },
      "geometry": {
        "type": "Point",
        "coordinates": [
          14.3769973,
          46.2729863
        ]
      }
    },
    {
      "id": "1",
      "type": "Feature",
      "properties": {
        "category": "castle",
        "id": "2",
        "image": "",
        "name": "Grad Turn",
        "region": "Gorenjska"
      },
      "geometry": {
        "type": "Point",
        "coordinates": [
          14.4330946,
          46.3053788
        ]
      }
    },
    {
      "id": "2",
      "type": "Feature",
      "properties": {
        "category": "castle",
        "id": "3",
        "image": "",
        "name": "Grad Golnik",
        "region": "Gorenjska"
      },
      "geometry": {
        "type": "Point",
        "coordinates": [
          14.3327196,
          46.3295118
        ]
      }
    },
    {
      "id": "3",
      "type": "Feature",
      "properties": {
        "category": "castle",
        "id": "4",
        "image": "",
        "name": "Starološki grad",
        "region": "Gorenjska"
      },
      "geometry": {
        "type": "Point",
        "coordinates": [
          14.3006774,
          46.1715495
        ]
      }
    },
    {
      "id": "4",
      "type": "Feature",
      "properties": {
        "category": "castle",
        "id": "5",
        "image": "",
        "name": "Grad Hrib",
        "region": "Gorenjska"
      },
      "geometry": {
        "type": "Point",
        "coordinates": [
          14.4267736,
          46.3022953
        ]
      }
    },
    {
      "id": "5",
      "type": "Feature",
      "properties": {
        "category": "castle",
        "id": "6",
        "image": "",
        "name": "Blejski grad",
        "region": "Gorenjska"
      },
      "geometry": {
        "type": "Point",
        "coordinates": [
          14.1005207,
          46.3697036
        ]
      }
    },
    {
      "id": "6",
      "type": "Feature",
      "properties": {
        "category": "castle",
        "id": "7",
        "image": "",
        "name": "Grad Strmol",
        "region": "Gorenjska"
      },
      "geometry": {
        "type": "Point",
        "coordinates": [
          14.4789906,
          46.2648231
        ]
      }
    },
    {
      "id": "7",
      "type": "Feature",
      "properties": {
        "category": "castle",
        "id": "8",
        "image": "",
        "name": "Škofjeloški grad",
        "region": "Gorenjska"
      },
      "geometry": {
        "type": "Point",
        "coordinates": [
          14.3050486,
          46.165262
        ]
      }
    },
    {
      "id": "8",
      "type": "Feature",
      "properties": {
        "category": "castle",
        "id": "9",
        "image": "",
        "name": "Puštalski grad",
        "region": "Gorenjska"
      },
      "geometry": {
        "type": "Point",
        "coordinates": [
          14.3110208,
          46.1622768
        ]
      }
    },
    {
      "id": "9",
      "type": "Feature",
      "properties": {
        "category": "castle",
        "id": "10",
        "image": "",
        "name": "Grad Khislstein",
        "region": "Gorenjska"
      },
      "geometry": {
        "type": "Point",
        "coordinates": [
          14.3543922,
          46.2384319
        ]
      }
    },
    {
      "id": "10",
      "type": "Feature",
      "properties": {
        "category": "castle",
        "id": "11",
        "image": "",
        "name": "Grad Kamen",
        "region": "Gorenjska"
      },
      "geometry": {
        "type": "Point",
        "coordinates": [
          14.2173028,
          46.3819818
        ]
      }
    },
    {
      "id": "11",
      "type": "Feature",
      "properties": {
        "category": "castle",
        "id": "12",
        "image": "",
        "name": "Hudi grad",
        "region": "Gorenjska"
      },
      "geometry": {
        "type": "Point",
        "coordinates": [
          14.288772,
          46.3620715
        ]
      }
    },
    {
      "id": "12",
      "type": "Feature",
      "properties": {
        "category": "castle",
        "id": "13",
        "image": "",
        "name": "Pusti grad",
        "region": "Gorenjska"
      },
      "geometry": {
        "type": "Point",
        "coordinates": [
          14.1698827,
          46.3273864
        ]
      }
    },
    {
      "id": "13",
      "type": "Feature",
      "properties": {
        "category": "castle",
        "id": "14",
        "image": "",
        "name": "Starološki grad",
        "region": "Gorenjska"
      },
      "geometry": {
        "type": "Point",
        "coordinates": [
          14.3006774,
          46.1715495
        ]
      }
    },
    {
      "id": "14",
      "type": "Feature",
      "properties": {
        "category": "castle",
        "id": "15",
        "image": "",
        "name": "Grad Kamen nad Adergasom",
        "region": "Gorenjska"
      },
      "geometry": {
        "type": "Point",
        "coordinates": [
          14.462893,
          46.2720213
        ]
      }
    },
    {
      "id": "15",
      "type": "Feature",
      "properties": {
        "category": "castle",
        "id": "16",
        "image": "",
        "name": "Grad Podvin",
        "region": "Gorenjska"
      },
      "geometry": {
        "type": "Point",
        "coordinates": [
          14.2084225,
          46.3385591
        ]
      }
    },
    {
      "id": "16",
      "type": "Feature",
      "properties": {
        "category": "castle",
        "id": "17",
        "image": "",
        "name": "Stari grad",
        "region": "Gorenjska"
      },
      "geometry": {
        "type": "Point",
        "coordinates": [
          14.2870828,
          46.1630739
        ]
      }
    },
    {
      "id": "17",
      "type": "Feature",
      "properties": {
        "category": "castle",
        "id": "18",
        "image": "",
        "name": "Grad Gewerkenegg",
        "region": "Goriška"
      },
      "geometry": {
        "type": "Point",
        "coordinates": [
          14.0186727,
          46.0006889
        ]
      }
    },
    {
      "id": "18",
      "type": "Feature",
      "properties": {
        "category": "castle",
        "id": "19",
        "image": "",
        "name": "Osnovna šola Vipavski Križ",
        "region": "Goriška"
      },
      "geometry": {
        "type": "Point",
        "coordinates": [
          13.8628417,
          45.8806449
        ]
      }
    },
    {
      "id": "19",
      "type": "Feature",
      "properties": {
        "category": "castle",
        "id": "20",
        "image": "",
        "name": "Grad Kromberk",
        "region": "Goriška"
      },
      "geometry": {
        "type": "Point",
        "coordinates": [
          13.6859142,
          45.9615687
        ]
      }
    },
    {
      "id": "20",
      "type": "Feature",
      "properties": {
        "category": "castle",
        "id": "21",
        "image": "",
        "name": "Grad Dobrovo",
        "region": "Goriška"
      },
      "geometry": {
        "type": "Point",
        "coordinates": [
          13.5239749,
          45.9967609
        ]
      }
    },
    {
      "id": "21",
      "type": "Feature",
      "properties": {
        "category": "castle",
        "id": "22",
        "image": "",
        "name": "Dvorec Vogrsko",
        "region": "Goriška"
      },
      "geometry": {
        "type": "Point",
        "coordinates": [
          13.7006399,
          45.9032374
        ]
      }
    },
    {
      "id": "22",
      "type": "Feature",
      "properties": {
        "category": "castle",
        "id": "23",
        "image": "",
        "name": "Grad Rihemberk",
        "region": "Goriška"
      },
      "geometry": {
        "type": "Point",
        "coordinates": [
          13.7914509,
          45.8510893
        ]
      }
    },
    {
      "id": "23",
      "type": "Feature",
      "properties": {
        "category": "castle",
        "id": "24",
        "image": "",
        "name": "Trdnjava Predel",
        "region": "Goriška"
      },
      "geometry": {
        "type": "Point",
        "coordinates": [
          13.5877209,
          46.4209737
        ]
      }
    },
    {
      "id": "24",
      "type": "Feature",
      "properties": {
        "category": "castle",
        "id": "25",
        "image": "",
        "name": "Trdnjava Predel",
        "region": "Goriška"
      },
      "geometry": {
        "type": "Point",
        "coordinates": [
          13.5884215,
          46.4206652
        ]
      }
    },
    {
      "id": "25",
      "type": "Feature",
      "properties": {
        "category": "castle",
        "id": "26",
        "image": "",
        "name": "Ostanki mestnega gradu",
        "region": "Goriška"
      },
      "geometry": {
        "type": "Point",
        "coordinates": [
          13.7256422,
          46.189621
        ]
      }
    },
    {
      "id": "26",
      "type": "Feature",
      "properties": {
        "category": "castle",
        "id": "27",
        "image": "",
        "name": "Dvorec Zemono",
        "region": "Goriška"
      },
      "geometry": {
        "type": "Point",
        "coordinates": [
          13.9491652,
          45.8555422
        ]
      }
    },
    {
      "id": "27",
      "type": "Feature",
      "properties": {
        "category": "castle",
        "id": "28",
        "image": "",
        "name": "Grad Lože",
        "region": "Goriška"
      },
      "geometry": {
        "type": "Point",
        "coordinates": [
          13.9346121,
          45.8293062
        ]
      }
    },
    {
      "id": "28",
      "type": "Feature",
      "properties": {
        "category": "castle",
        "id": "29",
        "image": "",
        "name": "Grad Vogrsko",
        "region": "Goriška"
      },
      "geometry": {
        "type": "Point",
        "coordinates": [
          13.6997305,
          45.9061873
        ]
      }
    },
    {
      "id": "29",
      "type": "Feature",
      "properties": {
        "category": "castle",
        "id": "30",
        "image": "",
        "name": "Dvorec Petergalovše",
        "region": "Goriška"
      },
      "geometry": {
        "type": "Point",
        "coordinates": [
          13.870023,
          45.8857017
        ]
      }
    },
    {
      "id": "30",
      "type": "Feature",
      "properties": {
        "category": "castle",
        "id": "31",
        "image": "",
        "name": "Dvorec Lanthieri",
        "region": "Goriška"
      },
      "geometry": {
        "type": "Point",
        "coordinates": [
          13.9628243,
          45.8453569
        ]
      }
    },
    {
      "id": "31",
      "type": "Feature",
      "properties": {
        "category": "castle",
        "id": "32",
        "image": "",
        "name": "grad Trillek",
        "region": "Goriška"
      },
      "geometry": {
        "type": "Point",
        "coordinates": [
          13.9896314,
          45.8816612
        ]
      }
    },
    {
      "id": "32",
      "type": "Feature",
      "properties": {
        "category": "castle",
        "id": "33",
        "image": "",
        "name": "Rihemberk Castle",
        "region": "Goriška"
      },
      "geometry": {
        "type": "Point",
        "coordinates": [
          13.7914648,
          45.8511089
        ]
      }
    },
    {
      "id": "33",
      "type": "Feature",
      "properties": {
        "category": "castle",
        "id": "34",
        "image": "",
        "name": "Grad Žužemberk",
        "region": "Jugovzhodna Slovenija"
      },
      "geometry": {
        "type": "Point",
        "coordinates": [
          14.9290798,
          45.8300959
        ]
      }
    },
    {
      "id": "34",
      "type": "Feature",
      "properties": {
        "category": "castle",
        "id": "35",
        "image": "",
        "name": "Grad Trebnje",
        "region": "Jugovzhodna Slovenija"
      },
      "geometry": {
        "type": "Point",
        "coordinates": [
          15.006141,
          45.9043577
        ]
      }
    },
    {
      "id": "35",
      "type": "Feature",
      "properties": {
        "category": "castle",
        "id": "36",
        "image": "",
        "name": "grad Luknja",
        "region": "Jugovzhodna Slovenija"
      },
      "geometry": {
        "type": "Point",
        "coordinates": [
          15.0964718,
          45.8176835
        ]
      }
    },
    {
      "id": "36",
      "type": "Feature",
      "properties": {
        "category": "castle",
        "id": "37",
        "image": "",
        "name": "Grad Metlika",
        "region": "Jugovzhodna Slovenija"
      },
      "geometry": {
        "type": "Point",
        "coordinates": [
          15.317599,
          45.651553
        ]
      }
    },
    {
      "id": "37",
      "type": "Feature",
      "properties": {
        "category": "castle",
        "id": "38",
        "image": "",
        "name": "Grad Gracarjev Turn",
        "region": "Jugovzhodna Slovenija"
      },
      "geometry": {
        "type": "Point",
        "coordinates": [
          15.2968054,
          45.8161208
        ]
      }
    },
    {
      "id": "38",
      "type": "Feature",
      "properties": {
        "category": "castle",
        "id": "39",
        "image": "",
        "name": "Grad Grm",
        "region": "Jugovzhodna Slovenija"
      },
      "geometry": {
        "type": "Point",
        "coordinates": [
          15.1716809,
          45.7950962
        ]
      }
    },
    {
      "id": "39",
      "type": "Feature",
      "properties": {
        "category": "castle",
        "id": "40",
        "image": "",
        "name": "Grad Žužemberk",
        "region": "Jugovzhodna Slovenija"
      },
      "geometry": {
        "type": "Point",
        "coordinates": [
          14.9290798,
          45.8300959
        ]
      }
    },
    {
      "id": "40",
      "type": "Feature",
      "properties": {
        "category": "castle",
        "id": "41",
        "image": "",
        "name": "Grad Hmeljnik",
        "region": "Jugovzhodna Slovenija"
      },
      "geometry": {
        "type": "Point",
        "coordinates": [
          15.1528583,
          45.8628676
        ]
      }
    },
    {
      "id": "41",
      "type": "Feature",
      "properties": {
        "category": "castle",
        "id": "42",
        "image": "",
        "name": "Grad Otočec",
        "region": "Jugovzhodna Slovenija"
      },
      "geometry": {
        "type": "Point",
        "coordinates": [
          15.2346896,
          45.8381376
        ]
      }
    },
    {
      "id": "42",
      "type": "Feature",
      "properties": {
        "category": "castle",
        "id": "43",
        "image": "",
        "name": "Ortneški grad",
        "region": "Jugovzhodna Slovenija"
      },
      "geometry": {
        "type": "Point",
        "coordinates": [
          14.670642,
          45.7825475
        ]
      }
    },
    {
      "id": "43",
      "type": "Feature",
      "properties": {
        "category": "castle",
        "id": "44",
        "image": "",
        "name": "Grad Škrljevo",
        "region": "Jugovzhodna Slovenija"
      },
      "geometry": {
        "type": "Point",
        "coordinates": [
          15.0754609,
          45.9780143
        ]
      }
    },
    {
      "id": "44",
      "type": "Feature",
      "properties": {
        "category": "castle",
        "id": "45",
        "image": "",
        "name": "Mirenski Grad",
        "region": "Jugovzhodna Slovenija"
      },
      "geometry": {
        "type": "Point",
        "coordinates": [
          15.0536522,
          45.9583059
        ]
      }
    },
    {
      "id": "45",
      "type": "Feature",
      "properties": {
        "category": "castle",
        "id": "46",
        "image": "",
        "name": "Grad Radeljca",
        "region": "Jugovzhodna Slovenija"
      },
      "geometry": {
        "type": "Point",
        "coordinates": [
          15.3346954,
          45.9373181
        ]
      }
    },
    {
      "id": "46",
      "type": "Feature",
      "properties": {
        "category": "castle",
        "id": "47",
        "image": "",
        "name": "Grad Gradac",
        "region": "Jugovzhodna Slovenija"
      },
      "geometry": {
        "type": "Point",
        "coordinates": [
          15.2462198,
          45.6134818
        ]
      }
    },
    {
      "id": "47",
      "type": "Feature",
      "properties": {
        "category": "castle",
        "id": "48",
        "image": "",
        "name": "Grad Soteska",
        "region": "Jugovzhodna Slovenija"
      },
      "geometry": {
        "type": "Point",
        "coordinates": [
          15.0190859,
          45.7803369
        ]
      }
    },
    {
      "id": "48",
      "type": "Feature",
      "properties": {
        "category": "castle",
        "id": "49",
        "image": "",
        "name": "Hudičev Turn",
        "region": "Jugovzhodna Slovenija"
      },
      "geometry": {
        "type": "Point",
        "coordinates": [
          15.021471,
          45.7788024
        ]
      }
    },
    {
      "id": "49",
      "type": "Feature",
      "properties": {
        "category": "castle",
        "id": "50",
        "image": "",
        "name": "Graščina Zapuže",
        "region": "Jugovzhodna Slovenija"
      },
      "geometry": {
        "type": "Point",
        "coordinates": [
          15.0710074,
          45.947807
        ]
      }
    },
    {
      "id": "50",
      "type": "Feature",
      "properties": {
        "category": "castle",
        "id": "51",
        "image": "",
        "name": "Grad Klevevž",
        "region": "Jugovzhodna Slovenija"
      },
      "geometry": {
        "type": "Point",
        "coordinates": [
          15.2326049,
          45.9068645
        ]
      }
    },
    {
      "id": "51",
      "type": "Feature",
      "properties": {
        "category": "castle",
        "id": "52",
        "image": "",
        "name": "Grad Graben",
        "region": "Jugovzhodna Slovenija"
      },
      "geometry": {
        "type": "Point",
        "coordinates": [
          15.1835641,
          45.81756
        ]
      }
    },
    {
      "id": "52",
      "type": "Feature",
      "properties": {
        "category": "castle",
        "id": "53",
        "image": "",
        "name": "Grad zgornji Čretež",
        "region": "Jugovzhodna Slovenija"
      },
      "geometry": {
        "type": "Point",
        "coordinates": [
          15.2041011,
          45.9261057
        ]
      }
    },
    {
      "id": "53",
      "type": "Feature",
      "properties": {
        "category": "castle",
        "id": "54",
        "image": "",
        "name": "Grad spodnji Čretež",
        "region": "Jugovzhodna Slovenija"
      },
      "geometry": {
        "type": "Point",
        "coordinates": [
          15.203755,
          45.9273652
        ]
      }
    },
    {
      "id": "54",
      "type": "Feature",
      "properties": {
        "category": "castle",
        "id": "55",
        "image": "",
        "name": "Grad Šumberk",
        "region": "Jugovzhodna Slovenija"
      },
      "geometry": {
        "type": "Point",
        "coordinates": [
          14.8959388,
          45.8905738
        ]
      }
    },
    {
      "id": "55",
      "type": "Feature",
      "properties": {
        "category": "castle",
        "id": "56",
        "image": "",
        "name": "Grad Kozjek",
        "region": "Jugovzhodna Slovenija"
      },
      "geometry": {
        "type": "Point",
        "coordinates": [
          14.9273917,
          45.8933545
        ]
      }
    },
    {
      "id": "56",
      "type": "Feature",
      "properties": {
        "category": "castle",
        "id": "57",
        "image": "",
        "name": "Grad Rožek",
        "region": "Jugovzhodna Slovenija"
      },
      "geometry": {
        "type": "Point",
        "coordinates": [
          15.0380082,
          45.7407101
        ]
      }
    },
    {
      "id": "57",
      "type": "Feature",
      "properties": {
        "category": "castle",
        "id": "58",
        "image": "",
        "name": "Stari grad Traberg",
        "region": "Koroška"
      },
      "geometry": {
        "type": "Point",
        "coordinates": [
          15.0179374,
          46.5929178
        ]
      }
    },
    {
      "id": "58",
      "type": "Feature",
      "properties": {
        "category": "castle",
        "id": "59",
        "image": "",
        "name": "Grad Pukštajn",
        "region": "Koroška"
      },
      "geometry": {
        "type": "Point",
        "coordinates": [
          15.0433468,
          46.5933364
        ]
      }
    },
    {
      "id": "59",
      "type": "Feature",
      "properties": {
        "category": "castle",
        "id": "60",
        "image": "",
        "name": "Grad Prestranek",
        "region": "Primorsko-notranjska"
      },
      "geometry": {
        "type": "Point",
        "coordinates": [
          14.1733101,
          45.7320953
        ]
      }
    },
    {
      "id": "60",
      "type": "Feature",
      "properties": {
        "category": "castle",
        "id": "61",
        "image": "",
        "name": "Grad Snežnik",
        "region": "Primorsko-notranjska"
      },
      "geometry": {
        "type": "Point",
        "coordinates": [
          14.469163,
          45.6826854
        ]
      }
    },
    {
      "id": "61",
      "type": "Feature",
      "properties": {
        "category": "castle",
        "id": "62",
        "image": "",
        "name": "Dvorec Haasberg",
        "region": "Primorsko-notranjska"
      },
      "geometry": {
        "type": "Point",
        "coordinates": [
          14.2648805,
          45.8279925
        ]
      }
    },
    {
      "id": "62",
      "type": "Feature",
      "properties": {
        "category": "castle",
        "id": "63",
        "image": "",
        "name": "Predjamski grad",
        "region": "Primorsko-notranjska"
      },
      "geometry": {
        "type": "Point",
        "coordinates": [
          14.1267534,
          45.8157971
        ]
      }
    },
    {
      "id": "63",
      "type": "Feature",
      "properties": {
        "category": "castle",
        "id": "64",
        "image": "",
        "name": "Ravbarjev stolp",
        "region": "Primorsko-notranjska"
      },
      "geometry": {
        "type": "Point",
        "coordinates": [
          14.2472525,
          45.8225669
        ]
      }
    },
    {
      "id": "64",
      "type": "Feature",
      "properties": {
        "category": "castle",
        "id": "65",
        "image": "",
        "name": "Grad Snežnik",
        "region": "Primorsko-notranjska"
      },
      "geometry": {
        "type": "Point",
        "coordinates": [
          14.4690971,
          45.6826784
        ]
      }
    },
    {
      "id": "65",
      "type": "Feature",
      "properties": {
        "category": "castle",
        "id": "66",
        "image": "",
        "name": "Dvorec Turn",
        "region": "Primorsko-notranjska"
      },
      "geometry": {
        "type": "Point",
        "coordinates": [
          14.1964819,
          45.6040423
        ]
      }
    },
    {
      "id": "66",
      "type": "Feature",
      "properties": {
        "category": "castle",
        "id": "67",
        "image": "",
        "name": "Ruševine gradu Postojna (Adelsberg)",
        "region": "Primorsko-notranjska"
      },
      "geometry": {
        "type": "Point",
        "coordinates": [
          14.2109568,
          45.7789664
        ]
      }
    },
    {
      "id": "67",
      "type": "Feature",
      "properties": {
        "category": "castle",
        "id": "68",
        "image": "",
        "name": "Grajska štala",
        "region": "Primorsko-notranjska"
      },
      "geometry": {
        "type": "Point",
        "coordinates": [
          14.2644731,
          45.8271931
        ]
      }
    },
    {
      "id": "68",
      "type": "Feature",
      "properties": {
        "category": "castle",
        "id": "69",
        "image": "",
        "name": "Grajski vrt",
        "region": "Primorsko-notranjska"
      },
      "geometry": {
        "type": "Point",
        "coordinates": [
          14.2641526,
          45.8275944
        ]
      }
    },
    {
      "id": "69",
      "type": "Feature",
      "properties": {
        "category": "castle",
        "id": "70",
        "image": "",
        "name": "Grad Prem",
        "region": "Primorsko-notranjska"
      },
      "geometry": {
        "type": "Point",
        "coordinates": [
          14.1851755,
          45.6052417
        ]
      }
    },
    {
      "id": "70",
      "type": "Feature",
      "properties": {
        "category": "castle",
        "id": "71",
        "image": "",
        "name": "Gradič Zemon(Semenhif, Seml)",
        "region": "Primorsko-notranjska"
      },
      "geometry": {
        "type": "Point",
        "coordinates": [
          14.2614994,
          45.5470026
        ]
      }
    },
    {
      "id": "71",
      "type": "Feature",
      "properties": {
        "category": "castle",
        "id": "72",
        "image": "",
        "name": "Grad Kalec",
        "region": "Primorsko-notranjska"
      },
      "geometry": {
        "type": "Point",
        "coordinates": [
          14.2459878,
          45.6413958
        ]
      }
    },
    {
      "id": "72",
      "type": "Feature",
      "properties": {
        "category": "castle",
        "id": "73",
        "image": "",
        "name": "Grad Mašun",
        "region": "Primorsko-notranjska"
      },
      "geometry": {
        "type": "Point",
        "coordinates": [
          14.3688166,
          45.6292901
        ]
      }
    },
    {
      "id": "73",
      "type": "Feature",
      "properties": {
        "category": "castle",
        "id": "74",
        "image": "",
        "name": "Vila Piranesi",
        "region": "Primorsko-notranjska"
      },
      "geometry": {
        "type": "Point",
        "coordinates": [
          13.5671796,
          45.5279582
        ]
      }
    },
    {
      "id": "74",
      "type": "Feature",
      "properties": {
        "category": "castle",
        "id": "75",
        "image": "",
        "name": "Palača Trevisini",
        "region": "Obalno-kraška"
      },
      "geometry": {
        "type": "Point",
        "coordinates": [
          13.5674989,
          45.5281839
        ]
      }
    },
 
    {
      "id": "76",
      "type": "Feature",
      "properties": {
        "category": "castle",
        "id": "77",
        "image": "",
        "name": "Gravisijev grad",
        "region": "Obalno-kraška"
      },
      "geometry": {
        "type": "Point",
        "coordinates": [
          13.7154756,
          45.5424709
        ]
      }
    },
    {
      "id": "77",
      "type": "Feature",
      "properties": {
        "category": "castle",
        "id": "78",
        "image": "",
        "name": "Vila Tartini",
        "region": "Obalno-kraška"
      },
      "geometry": {
        "type": "Point",
        "coordinates": [
          13.6011818,
          45.5326987
        ]
      }
    },
    {
      "id": "78",
      "type": "Feature",
      "properties": {
        "category": "castle",
        "id": "79",
        "image": "",
        "name": "Palača Gabrielli",
        "region": "Obalno-kraška"
      },
      "geometry": {
        "type": "Point",
        "coordinates": [
          13.5681544,
          45.5275939
        ]
      }
    },
    {
      "id": "79",
      "type": "Feature",
      "properties": {
        "category": "castle",
        "id": "80",
        "image": "",
        "name": "Utrdba Sveti Sergio nad Črnim Kalom",
        "region": "Obalno-kraška"
      },
      "geometry": {
        "type": "Point",
        "coordinates": [
          13.881419,
          45.5516218
        ]
      }
    },
    {
      "id": "80",
      "type": "Feature",
      "properties": {
        "category": "castle",
        "id": "81",
        "image": "",
        "name": "Grad Socerb",
        "region": "Obalno-kraška"
      },
      "geometry": {
        "type": "Point",
        "coordinates": [
          13.8607494,
          45.5895581
        ]
      }
    },
    {
      "id": "81",
      "type": "Feature",
      "properties": {
        "category": "castle",
        "id": "82",
        "image": "",
        "name": "Stari grad",
        "region": "Obalno-kraška"
      },
      "geometry": {
        "type": "Point",
        "coordinates": [
          14.0415178,
          45.7209473
        ]
      }
    },
    {
      "id": "82",
      "type": "Feature",
      "properties": {
        "category": "castle",
        "id": "83",
        "image": "",
        "name": "Fužinski grad",
        "region": "Osrednjeslovenska"
      },
      "geometry": {
        "type": "Point",
        "coordinates": [
          14.5635091,
          46.0504921
        ]
      }
    },
    {
      "id": "83",
      "type": "Feature",
      "properties": {
        "category": "castle",
        "id": "84",
        "image": "",
        "name": "Grad Bogenšperk",
        "region": "Osrednjeslovenska"
      },
      "geometry": {
        "type": "Point",
        "coordinates": [
          14.8573936,
          46.0236531
        ]
      }
    },
    {
      "id": "84",
      "type": "Feature",
      "properties": {
        "category": "castle",
        "id": "85",
        "image": "",
        "name": "Grad Brdo",
        "region": "Osrednjeslovenska"
      },
      "geometry": {
        "type": "Point",
        "coordinates": [
          14.6848118,
          46.1695534
        ]
      }
    },
    {
      "id": "85",
      "type": "Feature",
      "properties": {
        "category": "castle",
        "id": "86",
        "image": "",
        "name": "Dvorec Goričane",
        "region": "Osrednjeslovenska"
      },
      "geometry": {
        "type": "Point",
        "coordinates": [
          14.3970063,
          46.1406774
        ]
      }
    },
    {
      "id": "86",
      "type": "Feature",
      "properties": {
        "category": "castle",
        "id": "87",
        "image": "",
        "name": "Grad Turjak",
        "region": "Osrednjeslovenska"
      },
      "geometry": {
        "type": "Point",
        "coordinates": [
          14.6076276,
          45.8769121
        ]
      }
    },
    {
      "id": "87",
      "type": "Feature",
      "properties": {
        "category": "castle",
        "id": "88",
        "image": "",
        "name": "Tivolski grad",
        "region": "Osrednjeslovenska"
      },
      "geometry": {
        "type": "Point",
        "coordinates": [
          14.4929253,
          46.0546323
        ]
      }
    },
    {
      "id": "88",
      "type": "Feature",
      "properties": {
        "category": "castle",
        "id": "89",
        "image": "ljubljana_castle.jpg",
        "name": "Ljubljanski grad",
        "region": "Osrednjeslovenska"
      },
      "geometry": {
        "type": "Point",
        "coordinates": [
          14.5085703,
          46.04885
        ]
      }
    },
    {
      "id": "89",
      "type": "Feature",
      "properties": {
        "category": "castle",
        "id": "90",
        "image": "",
        "name": "Grad Tuštanj",
        "region": "Osrednjeslovenska"
      },
      "geometry": {
        "type": "Point",
        "coordinates": [
          14.7221155,
          46.1274119
        ]
      }
    },
    {
      "id": "90",
      "type": "Feature",
      "properties": {
        "category": "castle",
        "id": "91",
        "image": "",
        "name": "Bistra",
        "region": "Osrednjeslovenska"
      },
      "geometry": {
        "type": "Point",
        "coordinates": [
          14.3328084,
          45.9463822
        ]
      }
    },
    {
      "id": "91",
      "type": "Feature",
      "properties": {
        "category": "castle",
        "id": "92",
        "image": "",
        "name": "Stari grad (Smledniški hrib)",
        "region": "Osrednjeslovenska"
      },
      "geometry": {
        "type": "Point",
        "coordinates": [
          14.4422379,
          46.1654085
        ]
      }
    },
    {
      "id": "92",
      "type": "Feature",
      "properties": {
        "category": "castle",
        "id": "93",
        "image": "",
        "name": "Graščina Repnje",
        "region": "Osrednjeslovenska"
      },
      "geometry": {
        "type": "Point",
        "coordinates": [
          14.4816102,
          46.1716946
        ]
      }
    },
    {
      "id": "93",
      "type": "Feature",
      "properties": {
        "category": "castle",
        "id": "94",
        "image": "",
        "name": "Rojstna hiša Louisa Adamiča",
        "region": "Osrednjeslovenska"
      },
      "geometry": {
        "type": "Point",
        "coordinates": [
          14.6694267,
          45.9501486
        ]
      }
    },
    {
      "id": "94",
      "type": "Feature",
      "properties": {
        "category": "castle",
        "id": "95",
        "image": "",
        "name": "Boštanjski grad",
        "region": "Osrednjeslovenska"
      },
      "geometry": {
        "type": "Point",
        "coordinates": [
          14.6786291,
          45.9346567
        ]
      }
    },
    {
      "id": "95",
      "type": "Feature",
      "properties": {
        "category": "castle",
        "id": "96",
        "image": "",
        "name": "Grad Jable",
        "region": "Osrednjeslovenska"
      },
      "geometry": {
        "type": "Point",
        "coordinates": [
          14.553337,
          46.1418588
        ]
      }
    },
    {
      "id": "96",
      "type": "Feature",
      "properties": {
        "category": "castle",
        "id": "97",
        "image": "",
        "name": "Grad Kodeljevo",
        "region": "Osrednjeslovenska"
      },
      "geometry": {
        "type": "Point",
        "coordinates": [
          14.5309747,
          46.0502476
        ]
      }
    },
    {
      "id": "97",
      "type": "Feature",
      "properties": {
        "category": "castle",
        "id": "98",
        "image": "",
        "name": "Stari grad",
        "region": "Osrednjeslovenska"
      },
      "geometry": {
        "type": "Point",
        "coordinates": [
          14.6172212,
          46.2239325
        ]
      }
    },
    {
      "id": "98",
      "type": "Feature",
      "properties": {
        "category": "castle",
        "id": "99",
        "image": "",
        "name": "Blagajev (Polhograjski) grad",
        "region": "Osrednjeslovenska"
      },
      "geometry": {
        "type": "Point",
        "coordinates": [
          14.3140224,
          46.0674689
        ]
      }
    },
    {
      "id": "99",
      "type": "Feature",
      "properties": {
        "category": "castle",
        "id": "100",
        "image": "",
        "name": "Ravbarjev grad",
        "region": "Osrednjeslovenska"
      },
      "geometry": {
        "type": "Point",
        "coordinates": [
          14.5703999,
          46.1706975
        ]
      }
    },
    {
      "id": "100",
      "type": "Feature",
      "properties": {
        "category": "castle",
        "id": "101",
        "image": "",
        "name": "Grad Bokalce",
        "region": "Osrednjeslovenska"
      },
      "geometry": {
        "type": "Point",
        "coordinates": [
          14.4446154,
          46.04801
        ]
      }
    },
    {
      "id": "101",
      "type": "Feature",
      "properties": {
        "category": "castle",
        "id": "102",
        "image": "",
        "name": "Stari Grad",
        "region": "Osrednjeslovenska"
      },
      "geometry": {
        "type": "Point",
        "coordinates": [
          14.7438396,
          45.9514839
        ]
      }
    },
    {
      "id": "102",
      "type": "Feature",
      "properties": {
        "category": "castle",
        "id": "103",
        "image": "",
        "name": "Dvorec Ponoviče",
        "region": "Osrednjeslovenska"
      },
      "geometry": {
        "type": "Point",
        "coordinates": [
          14.8636621,
          46.0779602
        ]
      }
    },
    {
      "id": "103",
      "type": "Feature",
      "properties": {
        "category": "castle",
        "id": "104",
        "image": "",
        "name": "Graščina Selo",
        "region": "Osrednjeslovenska"
      },
      "geometry": {
        "type": "Point",
        "coordinates": [
          14.8710414,
          45.9549536
        ]
      }
    },
    {
      "id": "104",
      "type": "Feature",
      "properties": {
        "category": "castle",
        "id": "105",
        "image": "",
        "name": "Grad Krumperk",
        "region": "Osrednjeslovenska"
      },
      "geometry": {
        "type": "Point",
        "coordinates": [
          14.6333618,
          46.1344533
        ]
      }
    },
    {
      "id": "105",
      "type": "Feature",
      "properties": {
        "category": "castle",
        "id": "106",
        "image": "",
        "name": "Kriški grad",
        "region": "Osrednjeslovenska"
      },
      "geometry": {
        "type": "Point",
        "coordinates": [
          14.5678175,
          46.2029809
        ]
      }
    },
    {
      "id": "106",
      "type": "Feature",
      "properties": {
        "category": "castle",
        "id": "107",
        "image": "",
        "name": "Grad Zaprice",
        "region": "Osrednjeslovenska"
      },
      "geometry": {
        "type": "Point",
        "coordinates": [
          14.6056035,
          46.2231009
        ]
      }
    },
    {
      "id": "107",
      "type": "Feature",
      "properties": {
        "category": "castle",
        "id": "108",
        "image": "",
        "name": "Gruberjeva palača",
        "region": "Osrednjeslovenska"
      },
      "geometry": {
        "type": "Point",
        "coordinates": [
          14.5070347,
          46.0454304
        ]
      }
    },
    {
      "id": "108",
      "type": "Feature",
      "properties": {
        "category": "castle",
        "id": "109",
        "image": "",
        "name": "Spodnji grad",
        "region": "Osrednjeslovenska"
      },
      "geometry": {
        "type": "Point",
        "coordinates": [
          14.5698247,
          46.167288
        ]
      }
    },
    {
      "id": "109",
      "type": "Feature",
      "properties": {
        "category": "castle",
        "id": "110",
        "image": "",
        "name": "Grad Šinkov Turn",
        "region": "Osrednjeslovenska"
      },
      "geometry": {
        "type": "Point",
        "coordinates": [
          14.5261333,
          46.1614438
        ]
      }
    },
    {
      "id": "110",
      "type": "Feature",
      "properties": {
        "category": "castle",
        "id": "111",
        "image": "",
        "name": "Valvazorjev lovski dvorec",
        "region": "Osrednjeslovenska"
      },
      "geometry": {
        "type": "Point",
        "coordinates": [
          15.0225,
          46.0510282
        ]
      }
    },
    {
      "id": "111",
      "type": "Feature",
      "properties": {
        "category": "castle",
        "id": "112",
        "image": "",
        "name": "Teršek",
        "region": "Osrednjeslovenska"
      },
      "geometry": {
        "type": "Point",
        "coordinates": [
          14.7896778,
          46.2214233
        ]
      }
    },
    {
      "id": "112",
      "type": "Feature",
      "properties": {
        "category": "castle",
        "id": "113",
        "image": "",
        "name": "Grad Pogonik",
        "region": "Osrednjeslovenska"
      },
      "geometry": {
        "type": "Point",
        "coordinates": [
          14.8243055,
          46.0843074
        ]
      }
    },
    {
      "id": "113",
      "type": "Feature",
      "properties": {
        "category": "castle",
        "id": "114",
        "image": "",
        "name": "Dvorec Selo",
        "region": "Osrednjeslovenska"
      },
      "geometry": {
        "type": "Point",
        "coordinates": [
          14.5381185,
          46.0569556
        ]
      }
    },
    {
      "id": "114",
      "type": "Feature",
      "properties": {
        "category": "castle",
        "id": "115",
        "image": "",
        "name": "Dvorec Lazarini",
        "region": "Osrednjeslovenska"
      },
      "geometry": {
        "type": "Point",
        "coordinates": [
          14.43126,
          46.1726431
        ]
      }
    },
    {
      "id": "115",
      "type": "Feature",
      "properties": {
        "category": "castle",
        "id": "116",
        "image": "",
        "name": "Graščina Dol",
        "region": "Osrednjeslovenska"
      },
      "geometry": {
        "type": "Point",
        "coordinates": [
          14.6452135,
          46.0878208
        ]
      }
    },
    {
      "id": "116",
      "type": "Feature",
      "properties": {
        "category": "castle",
        "id": "117",
        "image": "",
        "name": "Dvorec Ponoviče",
        "region": "Osrednjeslovenska"
      },
      "geometry": {
        "type": "Point",
        "coordinates": [
          14.8639906,
          46.0779468
        ]
      }
    },
    {
      "id": "117",
      "type": "Feature",
      "properties": {
        "category": "castle",
        "id": "118",
        "image": "",
        "name": "Pozabljeni grad",
        "region": "Osrednjeslovenska"
      },
      "geometry": {
        "type": "Point",
        "coordinates": [
          14.35196,
          46.1410756
        ]
      }
    },
    {
      "id": "118",
      "type": "Feature",
      "properties": {
        "category": "castle",
        "id": "119",
        "image": "",
        "name": "Stari grad Goričane",
        "region": "Osrednjeslovenska"
      },
      "geometry": {
        "type": "Point",
        "coordinates": [
          14.3919919,
          46.1392032
        ]
      }
    },
    {
      "id": "119",
      "type": "Feature",
      "properties": {
        "category": "castle",
        "id": "120",
        "image": "",
        "name": "Stari grad Kolovec",
        "region": "Osrednjeslovenska"
      },
      "geometry": {
        "type": "Point",
        "coordinates": [
          14.6495927,
          46.1976642
        ]
      }
    },
    {
      "id": "120",
      "type": "Feature",
      "properties": {
        "category": "castle",
        "id": "121",
        "image": "",
        "name": "Grad Maribor",
        "region": "Podravska"
      },
      "geometry": {
        "type": "Point",
        "coordinates": [
          15.6487679,
          46.5607945
        ]
      }
    },
    {
      "id": "121",
      "type": "Feature",
      "properties": {
        "category": "castle",
        "id": "122",
        "image": "",
        "name": "Rački grad",
        "region": "Podravska"
      },
      "geometry": {
        "type": "Point",
        "coordinates": [
          15.6791136,
          46.4524239
        ]
      }
    },
    {
      "id": "122",
      "type": "Feature",
      "properties": {
        "category": "castle",
        "id": "123",
        "image": "",
        "name": "Slivniški Grad",
        "region": "Podravska"
      },
      "geometry": {
        "type": "Point",
        "coordinates": [
          15.6463387,
          46.4761649
        ]
      }
    },
    {
      "id": "123",
      "type": "Feature",
      "properties": {
        "category": "castle",
        "id": "124",
        "image": "",
        "name": "Bistriški grad",
        "region": "Podravska"
      },
      "geometry": {
        "type": "Point",
        "coordinates": [
          15.5710738,
          46.3936889
        ]
      }
    },
    {
      "id": "124",
      "type": "Feature",
      "properties": {
        "category": "castle",
        "id": "125",
        "image": "",
        "name": "Grad Velika Nedelja",
        "region": "Podravska"
      },
      "geometry": {
        "type": "Point",
        "coordinates": [
          16.1115769,
          46.4189402
        ]
      }
    },
    {
      "id": "125",
      "type": "Feature",
      "properties": {
        "category": "castle",
        "id": "126",
        "image": "",
        "name": "Pohorski dvor",
        "region": "Podravska"
      },
      "geometry": {
        "type": "Point",
        "coordinates": [
          15.6240675,
          46.5048291
        ]
      }
    },
    {
      "id": "126",
      "type": "Feature",
      "properties": {
        "category": "castle",
        "id": "127",
        "image": "",
        "name": "Dvorec Novi Kinek",
        "region": "Podravska"
      },
      "geometry": {
        "type": "Point",
        "coordinates": [
          15.7857721,
          46.6949724
        ]
      }
    },
    {
      "id": "127",
      "type": "Feature",
      "properties": {
        "category": "castle",
        "id": "128",
        "image": "",
        "name": "Grad Borl",
        "region": "Podravska"
      },
      "geometry": {
        "type": "Point",
        "coordinates": [
          16.0031781,
          46.3747606
        ]
      }
    },
    {
      "id": "128",
      "type": "Feature",
      "properties": {
        "category": "castle",
        "id": "129",
        "image": "",
        "name": "Pragerski grad",
        "region": "Podravska"
      },
      "geometry": {
        "type": "Point",
        "coordinates": [
          15.6438119,
          46.4022485
        ]
      }
    },
    {
      "id": "129",
      "type": "Feature",
      "properties": {
        "category": "castle",
        "id": "130",
        "image": "",
        "name": "Dvorec Betnava",
        "region": "Podravska"
      },
      "geometry": {
        "type": "Point",
        "coordinates": [
          15.639859,
          46.5285114
        ]
      }
    },
    {
      "id": "130",
      "type": "Feature",
      "properties": {
        "category": "castle",
        "id": "131",
        "image": "",
        "name": "Ptujski grad",
        "region": "Podravska"
      },
      "geometry": {
        "type": "Point",
        "coordinates": [
          15.8677474,
          46.4209848
        ]
      }
    },
    {
      "id": "131",
      "type": "Feature",
      "properties": {
        "category": "castle",
        "id": "132",
        "image": "",
        "name": "Grad Svečina",
        "region": "Podravska"
      },
      "geometry": {
        "type": "Point",
        "coordinates": [
          15.5884208,
          46.6681199
        ]
      }
    },
    {
      "id": "132",
      "type": "Feature",
      "properties": {
        "category": "castle",
        "id": "133",
        "image": "",
        "name": "Grad Turnišče",
        "region": "Podravska"
      },
      "geometry": {
        "type": "Point",
        "coordinates": [
          15.865115,
          46.3985883
        ]
      }
    },
    {
      "id": "133",
      "type": "Feature",
      "properties": {
        "category": "castle",
        "id": "134",
        "image": "",
        "name": "Dvorec Viltuš",
        "region": "Podravska"
      },
      "geometry": {
        "type": "Point",
        "coordinates": [
          15.5332673,
          46.5609517
        ]
      }
    },
    {
      "id": "134",
      "type": "Feature",
      "properties": {
        "category": "castle",
        "id": "135",
        "image": "",
        "name": "Baročni dvorec Dornava",
        "region": "Podravska"
      },
      "geometry": {
        "type": "Point",
        "coordinates": [
          15.948536,
          46.4372927
        ]
      }
    },
    {
      "id": "135",
      "type": "Feature",
      "properties": {
        "category": "castle",
        "id": "136",
        "image": "",
        "name": "Graslov stolp",
        "region": "Podravska"
      },
      "geometry": {
        "type": "Point",
        "coordinates": [
          15.569498,
          46.392653
        ]
      }
    },
    {
      "id": "136",
      "type": "Feature",
      "properties": {
        "category": "castle",
        "id": "137",
        "image": "",
        "name": "Grad Ristovec",
        "region": "Podravska"
      },
      "geometry": {
        "type": "Point",
        "coordinates": [
          15.897132,
          46.4176147
        ]
      }
    },
    {
      "id": "137",
      "type": "Feature",
      "properties": {
        "category": "castle",
        "id": "138",
        "image": "",
        "name": "Kaprolov Grad",
        "region": "Podravska"
      },
      "geometry": {
        "type": "Point",
        "coordinates": [
          15.7860271,
          46.6954004
        ]
      }
    },
    {
      "id": "138",
      "type": "Feature",
      "properties": {
        "category": "castle",
        "id": "139",
        "image": "",
        "name": "Grad Vurberk",
        "region": "Podravska"
      },
      "geometry": {
        "type": "Point",
        "coordinates": [
          15.7962482,
          46.4866078
        ]
      }
    },
    {
      "id": "139",
      "type": "Feature",
      "properties": {
        "category": "castle",
        "id": "140",
        "image": "",
        "name": "Dvorec Štatenberg",
        "region": "Podravska"
      },
      "geometry": {
        "type": "Point",
        "coordinates": [
          15.6729012,
          46.3254374
        ]
      }
    },
    {
      "id": "140",
      "type": "Feature",
      "properties": {
        "category": "castle",
        "id": "141",
        "image": "",
        "name": "Grad Štatenberg",
        "region": "Podravska"
      },
      "geometry": {
        "type": "Point",
        "coordinates": [
          15.6729463,
          46.3254107
        ]
      }
    },
    {
      "id": "142",
      "type": "Feature",
      "properties": {
        "category": "castle",
        "id": "143",
        "image": "",
        "name": "Grad pri Gradu",
        "region": "Pomurska"
      },
      "geometry": {
        "type": "Point",
        "coordinates": [
          16.0962347,
          46.800202
        ]
      }
    },
    {
      "id": "143",
      "type": "Feature",
      "properties": {
        "category": "castle",
        "id": "144",
        "image": "",
        "name": "Grad Cmurek",
        "region": "Pomurska"
      },
      "geometry": {
        "type": "Point",
        "coordinates": [
          15.7869232,
          46.7054935
        ]
      }
    },
    {
      "id": "144",
      "type": "Feature",
      "properties": {
        "category": "castle",
        "id": "145",
        "image": "",
        "name": "Grad Rakičan",
        "region": "Pomurska"
      },
      "geometry": {
        "type": "Point",
        "coordinates": [
          16.1942526,
          46.6469252
        ]
      }
    },
    {
      "id": "145",
      "type": "Feature",
      "properties": {
        "category": "castle",
        "id": "146",
        "image": "",
        "name": "Grad",
        "region": "Pomurska"
      },
      "geometry": {
        "type": "Point",
        "coordinates": [
          16.1605186,
          46.6624238
        ]
      }
    },
    {
      "id": "146",
      "type": "Feature",
      "properties": {
        "category": "castle",
        "id": "147",
        "image": "",
        "name": "Dvorec Beltinci",
        "region": "Pomurska"
      },
      "geometry": {
        "type": "Point",
        "coordinates": [
          16.2330401,
          46.6070402
        ]
      }
    },
    {
      "id": "147",
      "type": "Feature",
      "properties": {
        "category": "castle",
        "id": "148",
        "image": "",
        "name": "Župnijska C. sv. Ladislava",
        "region": "Pomurska"
      },
      "geometry": {
        "type": "Point",
        "coordinates": [
          16.2353146,
          46.606712
        ]
      }
    },
    {
      "id": "148",
      "type": "Feature",
      "properties": {
        "category": "castle",
        "id": "149",
        "image": "",
        "name": "Grad",
        "region": "Pomurska"
      },
      "geometry": {
        "type": "Point",
        "coordinates": [
          16.4528118,
          46.5668923
        ]
      }
    },
    {
      "id": "149",
      "type": "Feature",
      "properties": {
        "category": "castle",
        "id": "150",
        "image": "",
        "name": "Vardov dvorec",
        "region": "Pomurska"
      },
      "geometry": {
        "type": "Point",
        "coordinates": [
          16.2196458,
          46.5020346
        ]
      }
    },
    {
      "id": "150",
      "type": "Feature",
      "properties": {
        "category": "castle",
        "id": "151",
        "image": "",
        "name": "Dvorec Matzenau",
        "region": "Pomurska"
      },
      "geometry": {
        "type": "Point",
        "coordinates": [
          16.3148443,
          46.7354488
        ]
      }
    },
    {
      "id": "151",
      "type": "Feature",
      "properties": {
        "category": "castle",
        "id": "152",
        "image": "",
        "name": "Grad Šahenturn",
        "region": "Pomurska"
      },
      "geometry": {
        "type": "Point",
        "coordinates": [
          15.9908142,
          46.6757202
        ]
      }
    },
    {
      "id": "152",
      "type": "Feature",
      "properties": {
        "category": "castle",
        "id": "153",
        "image": "",
        "name": "Kunejev Grad",
        "region": "Pomurska"
      },
      "geometry": {
        "type": "Point",
        "coordinates": [
          15.990296,
          46.6679048
        ]
      }
    },
    {
      "id": "153",
      "type": "Feature",
      "properties": {
        "category": "castle",
        "id": "154",
        "image": "",
        "name": "Grad Branek",
        "region": "Pomurska"
      },
      "geometry": {
        "type": "Point",
        "coordinates": [
          16.1321252,
          46.5191631
        ]
      }
    },
    {
      "id": "154",
      "type": "Feature",
      "properties": {
        "category": "castle",
        "id": "155",
        "image": "",
        "name": "Meinlov Grad Nekdaj Freudenau",
        "region": "Pomurska"
      },
      "geometry": {
        "type": "Point",
        "coordinates": [
          15.8894476,
          46.6964286
        ]
      }
    },
    {
      "id": "155",
      "type": "Feature",
      "properties": {
        "category": "castle",
        "id": "156",
        "image": "",
        "name": "Grad Podčetrtek",
        "region": "Savinjska"
      },
      "geometry": {
        "type": "Point",
        "coordinates": [
          15.5925255,
          46.1591004
        ]
      }
    },
    {
      "id": "156",
      "type": "Feature",
      "properties": {
        "category": "castle",
        "id": "157",
        "image": "",
        "name": "Dvorec Strmol",
        "region": "Savinjska"
      },
      "geometry": {
        "type": "Point",
        "coordinates": [
          15.6967846,
          46.2294967
        ]
      }
    },
    {
      "id": "157",
      "type": "Feature",
      "properties": {
        "category": "castle",
        "id": "158",
        "image": "",
        "name": "grad Mlače",
        "region": "Savinjska"
      },
      "geometry": {
        "type": "Point",
        "coordinates": [
          15.5081371,
          46.3039464
        ]
      }
    },
    {
      "id": "158",
      "type": "Feature",
      "properties": {
        "category": "castle",
        "id": "159",
        "image": "",
        "name": "Velenjski grad",
        "region": "Savinjska"
      },
      "geometry": {
        "type": "Point",
        "coordinates": [
          15.1100373,
          46.3568191
        ]
      }
    },
    {
      "id": "159",
      "type": "Feature",
      "properties": {
        "category": "castle",
        "id": "160",
        "image": "",
        "name": "Knežji dvorec, Celje",
        "region": "Savinjska"
      },
      "geometry": {
        "type": "Point",
        "coordinates": [
          15.2607952,
          46.2288821
        ]
      }
    },
    {
      "id": "160",
      "type": "Feature",
      "properties": {
        "category": "castle",
        "id": "161",
        "image": "",
        "name": "Grad Turn",
        "region": "Savinjska"
      },
      "geometry": {
        "type": "Point",
        "coordinates": [
          15.1187973,
          46.3796457
        ]
      }
    },
    {
      "id": "161",
      "type": "Feature",
      "properties": {
        "category": "castle",
        "id": "162",
        "image": "",
        "name": "Grad Podsreda",
        "region": "Savinjska"
      },
      "geometry": {
        "type": "Point",
        "coordinates": [
          15.5901489,
          46.0278145
        ]
      }
    },
    {
      "id": "162",
      "type": "Feature",
      "properties": {
        "category": "castle",
        "id": "163",
        "image": "",
        "name": "Celjski grad",
        "region": "Savinjska"
      },
      "geometry": {
        "type": "Point",
        "coordinates": [
          15.2722602,
          46.2196293
        ]
      }
    },
    {
      "id": "163",
      "type": "Feature",
      "properties": {
        "category": "castle",
        "id": "164",
        "image": "",
        "name": "Grad Frankolovo",
        "region": "Savinjska"
      },
      "geometry": {
        "type": "Point",
        "coordinates": [
          15.317877,
          46.3316832
        ]
      }
    },
    {
      "id": "164",
      "type": "Feature",
      "properties": {
        "category": "castle",
        "id": "165",
        "image": "",
        "name": "Grad tabor Laško",
        "region": "Savinjska"
      },
      "geometry": {
        "type": "Point",
        "coordinates": [
          15.2374091,
          46.1571191
        ]
      }
    },
    {
      "id": "165",
      "type": "Feature",
      "properties": {
        "category": "castle",
        "id": "166",
        "image": "",
        "name": "Grad Žovnek",
        "region": "Savinjska"
      },
      "geometry": {
        "type": "Point",
        "coordinates": [
          15.0037779,
          46.2764099
        ]
      }
    },
    {
      "id": "166",
      "type": "Feature",
      "properties": {
        "category": "castle",
        "id": "167",
        "image": "",
        "name": "Grad Konjice",
        "region": "Savinjska"
      },
      "geometry": {
        "type": "Point",
        "coordinates": [
          15.4091079,
          46.3358808
        ]
      }
    },
    {
      "id": "167",
      "type": "Feature",
      "properties": {
        "category": "castle",
        "id": "168",
        "image": "",
        "name": "Pusti grad",
        "region": "Savinjska"
      },
      "geometry": {
        "type": "Point",
        "coordinates": [
          15.0421852,
          46.3762716
        ]
      }
    },
    {
      "id": "168",
      "type": "Feature",
      "properties": {
        "category": "castle",
        "id": "169",
        "image": "",
        "name": "Ruševine Gradu Rifnik",
        "region": "Savinjska"
      },
      "geometry": {
        "type": "Point",
        "coordinates": [
          15.4029856,
          46.2015729
        ]
      }
    },
    {
      "id": "169",
      "type": "Feature",
      "properties": {
        "category": "castle",
        "id": "170",
        "image": "",
        "name": "Goležev grad (Grad Vitanje)",
        "region": "Savinjska"
      },
      "geometry": {
        "type": "Point",
        "coordinates": [
          15.2930211,
          46.3766743
        ]
      }
    },
    {
      "id": "170",
      "type": "Feature",
      "properties": {
        "category": "castle",
        "id": "171",
        "image": "",
        "name": "Zbelovski grad",
        "region": "Savinjska"
      },
      "geometry": {
        "type": "Point",
        "coordinates": [
          15.5266049,
          46.296069
        ]
      }
    },
    {
      "id": "171",
      "type": "Feature",
      "properties": {
        "category": "castle",
        "id": "172",
        "image": "",
        "name": "Dvorec Širje",
        "region": "Savinjska"
      },
      "geometry": {
        "type": "Point",
        "coordinates": [
          15.1659806,
          46.0959862
        ]
      }
    },
    {
      "id": "172",
      "type": "Feature",
      "properties": {
        "category": "castle",
        "id": "173",
        "image": "",
        "name": "Podgrad",
        "region": "Savinjska"
      },
      "geometry": {
        "type": "Point",
        "coordinates": [
          14.9408721,
          46.2461262
        ]
      }
    },
    {
      "id": "173",
      "type": "Feature",
      "properties": {
        "category": "castle",
        "id": "174",
        "image": "",
        "name": "Graščina Prebold",
        "region": "Savinjska"
      },
      "geometry": {
        "type": "Point",
        "coordinates": [
          15.0886116,
          46.2353128
        ]
      }
    },
    {
      "id": "174",
      "type": "Feature",
      "properties": {
        "category": "castle",
        "id": "175",
        "image": "",
        "name": "Kačji grad",
        "region": "Savinjska"
      },
      "geometry": {
        "type": "Point",
        "coordinates": [
          15.2096678,
          46.3374259
        ]
      }
    },
    {
      "id": "175",
      "type": "Feature",
      "properties": {
        "category": "castle",
        "id": "176",
        "image": "",
        "name": "Knežji dvorec, Celje",
        "region": "Savinjska"
      },
      "geometry": {
        "type": "Point",
        "coordinates": [
          15.2607952,
          46.2288821
        ]
      }
    },
    {
      "id": "176",
      "type": "Feature",
      "properties": {
        "category": "castle",
        "id": "177",
        "image": "",
        "name": "Krajnikov grad",
        "region": "Savinjska"
      },
      "geometry": {
        "type": "Point",
        "coordinates": [
          15.2932858,
          46.3791797
        ]
      }
    },
    {
      "id": "177",
      "type": "Feature",
      "properties": {
        "category": "castle",
        "id": "178",
        "image": "",
        "name": "Dvorec Jelše Jelšingrad",
        "region": "Savinjska"
      },
      "geometry": {
        "type": "Point",
        "coordinates": [
          15.5050939,
          46.2324017
        ]
      }
    },
    {
      "id": "178",
      "type": "Feature",
      "properties": {
        "category": "castle",
        "id": "179",
        "image": "",
        "name": "Grad Lindek",
        "region": "Savinjska"
      },
      "geometry": {
        "type": "Point",
        "coordinates": [
          15.325241,
          46.3525748
        ]
      }
    },
    {
      "id": "179",
      "type": "Feature",
      "properties": {
        "category": "castle",
        "id": "180",
        "image": "",
        "name": "Grad Planina",
        "region": "Savinjska"
      },
      "geometry": {
        "type": "Point",
        "coordinates": [
          15.4037767,
          46.1057506
        ]
      }
    },
    {
      "id": "180",
      "type": "Feature",
      "properties": {
        "category": "castle",
        "id": "181",
        "image": "",
        "name": "grad Pakenštajn",
        "region": "Savinjska"
      },
      "geometry": {
        "type": "Point",
        "coordinates": [
          15.0344749,
          46.3351188
        ]
      }
    },
    {
      "id": "181",
      "type": "Feature",
      "properties": {
        "category": "castle",
        "id": "182",
        "image": "",
        "name": "Grad Lemberg",
        "region": "Savinjska"
      },
      "geometry": {
        "type": "Point",
        "coordinates": [
          15.2470037,
          46.3227111
        ]
      }
    },
    {
      "id": "182",
      "type": "Feature",
      "properties": {
        "category": "castle",
        "id": "183",
        "image": "",
        "name": "grad Kunšperk",
        "region": "Savinjska"
      },
      "geometry": {
        "type": "Point",
        "coordinates": [
          15.693731,
          46.0570155
        ]
      }
    },
    {
      "id": "183",
      "type": "Feature",
      "properties": {
        "category": "castle",
        "id": "184",
        "image": "",
        "name": "Grad Lušperk",
        "region": "Savinjska"
      },
      "geometry": {
        "type": "Point",
        "coordinates": [
          15.3694088,
          46.3916091
        ]
      }
    },
    {
      "id": "184",
      "type": "Feature",
      "properties": {
        "category": "castle",
        "id": "185",
        "image": "",
        "name": "Grad Brežice",
        "region": "Posavska"
      },
      "geometry": {
        "type": "Point",
        "coordinates": [
          15.5925424,
          45.9016448
        ]
      }
    },
    {
      "id": "185",
      "type": "Feature",
      "properties": {
        "category": "castle",
        "id": "186",
        "image": "",
        "name": "Grad Bizeljsko",
        "region": "Posavska"
      },
      "geometry": {
        "type": "Point",
        "coordinates": [
          15.6939021,
          46.0448851
        ]
      }
    },
    {
      "id": "186",
      "type": "Feature",
      "properties": {
        "category": "castle",
        "id": "187",
        "image": "",
        "name": "Grad Sevnica",
        "region": "Posavska"
      },
      "geometry": {
        "type": "Point",
        "coordinates": [
          15.3140359,
          46.0079016
        ]
      }
    },
    {
      "id": "187",
      "type": "Feature",
      "properties": {
        "category": "castle",
        "id": "188",
        "image": "",
        "name": "Grajski hlevi",
        "region": "Posavska"
      },
      "geometry": {
        "type": "Point",
        "coordinates": [
          15.6739273,
          45.8571049
        ]
      }
    },
    {
      "id": "188",
      "type": "Feature",
      "properties": {
        "category": "castle",
        "id": "189",
        "image": "",
        "name": "Grad Mokrice",
        "region": "Posavska"
      },
      "geometry": {
        "type": "Point",
        "coordinates": [
          15.6757027,
          45.858391
        ]
      }
    },
    {
      "id": "189",
      "type": "Feature",
      "properties": {
        "category": "castle",
        "id": "190",
        "image": "",
        "name": "Grad Brestanica - Rajhenburg",
        "region": "Posavska"
      },
      "geometry": {
        "type": "Point",
        "coordinates": [
          15.4664801,
          45.9891262
        ]
      }
    },
    {
      "id": "190",
      "type": "Feature",
      "properties": {
        "category": "castle",
        "id": "191",
        "image": "",
        "name": "Štrajbarski Turn",
        "region": "Posavska"
      },
      "geometry": {
        "type": "Point",
        "coordinates": [
          15.4710409,
          45.9518556
        ]
      }
    },
    {
      "id": "191",
      "type": "Feature",
      "properties": {
        "category": "castle",
        "id": "192",
        "image": "",
        "name": "Spodnji grad",
        "region": "Posavska"
      },
      "geometry": {
        "type": "Point",
        "coordinates": [
          15.4678429,
          45.9881475
        ]
      }
    },
    {
      "id": "192",
      "type": "Feature",
      "properties": {
        "category": "castle",
        "id": "193",
        "image": "",
        "name": "Lutrovska Klet",
        "region": "Posavska"
      },
      "geometry": {
        "type": "Point",
        "coordinates": [
          15.315341,
          46.0077618
        ]
      }
    },
    {
      "id": "193",
      "type": "Feature",
      "properties": {
        "category": "castle",
        "id": "194",
        "image": "",
        "name": "Grad Pišece",
        "region": "Posavska"
      },
      "geometry": {
        "type": "Point",
        "coordinates": [
          15.6371513,
          46.0063978
        ]
      }
    },
    {
      "id": "194",
      "type": "Feature",
      "properties": {
        "category": "castle",
        "id": "195",
        "image": "",
        "name": "Grad Raka",
        "region": "Posavska"
      },
      "geometry": {
        "type": "Point",
        "coordinates": [
          15.3854545,
          45.9278503
        ]
      }
    },
    {
      "id": "195",
      "type": "Feature",
      "properties": {
        "category": "castle",
        "id": "196",
        "image": "",
        "name": "Krški grad",
        "region": "Posavska"
      },
      "geometry": {
        "type": "Point",
        "coordinates": [
          15.481349,
          45.9725029
        ]
      }
    },
    {
      "id": "196",
      "type": "Feature",
      "properties": {
        "category": "castle",
        "id": "197",
        "image": "",
        "name": "Gamberk",
        "region": "Zasavska"
      },
      "geometry": {
        "type": "Point",
        "coordinates": [
          14.967648,
          46.1621431
        ]
      }
    },
    {
      "id": "197",
      "type": "Feature",
      "properties": {
        "category": "castle",
        "id": "198",
        "image": "",
        "name": "Grad Kolovrat",
        "region": "Zasavska"
      },
      "geometry": {
        "type": "Point",
        "coordinates": [
          14.8769556,
          46.1647487
        ]
      }
    },
    {
      "id": "198",
      "type": "Feature",
      "properties": {
        "category": "castle",
        "id": "199",
        "image": "",
        "name": "Grad Ormož",
        "region": "Podravska"
      },
      "geometry": {
        "type": "Point",
        "coordinates": [
          16.1511691,
          46.4065542
        ]
      }
    },
    {
      "id": "199",
      "type": "Feature",
      "properties": {
        "category": "castle",
        "id": "200",
        "image": "",
        "name": "Vila Rafut",
        "region": "Goriška"
      },
      "geometry": {
        "type": "Point",
        "coordinates": [
          13.6389613,
          45.9478803
        ]
      }
    },
    {
      "id": "200",
      "type": "Feature",
      "properties": {
        "category": "castle",
        "id": "201",
        "image": "",
        "name": "Grad Vinica",
        "region": "Jugovzhodna Slovenija"
      },
      "geometry": {
        "type": "Point",
        "coordinates": [
          15.2559254,
          45.4595387
        ]
      }
    },
    {
      "id": "201",
      "type": "Feature",
      "properties": {
        "category": "castle",
        "id": "202",
        "image": "",
        "name": "Grad Kostel",
        "region": "Jugovzhodna Slovenija"
      },
      "geometry": {
        "type": "Point",
        "coordinates": [
          14.9102886,
          45.5085816
        ]
      }
    },
    {
      "id": "202",
      "type": "Feature",
      "properties": {
        "category": "lake",
        "id": "203",
        "image": "lake_bled.jpg",
        "name": "Lake Bled",
        "region": "Gorenjska"
      },
      "geometry": {
        "type": "Point",
        "coordinates": [
          14.0936,
          46.363
        ]
      }
    },
    {
      "id": "203",
      "type": "Feature",
      "properties": {
        "category": "lake",
        "id": "204",
        "image": "lake_jasna.jpg",
        "name": "Lake Jasna",
        "region": "Gorenjska"
      },
      "geometry": {
        "type": "Point",
        "coordinates": [
          13.783788919017468,
          46.47442739175608
        ]
      }
    },
    {
      "id": "204",
      "type": "Feature",
      "properties": {
        "category": "monument",
        "id": "205",
        "image": "kozorog.jpg",
        "name": "Kozorog",
        "region": "Gorenjska"
      },
      "geometry": {
        "type": "Point",
        "coordinates": [
          13.782928661715516,
          46.47531450888911
        ]
      }
    },
    {
      "id": "205",
      "type": "Feature",
      "properties": {
        "category": "park",
        "id": "206",
        "image": "tivoli_park.jpg",
        "name": "Tivoli Park",
        "region": "Osrednjeslovenska"
      },
      "geometry": {
        "type": "Point",
        "coordinates": [
          14.4935,
          46.0583
        ]
      }
    },
    {
      "id": "206",
      "type": "Feature",
      "properties": {
        "category": "viewpoint",
        "id": "207",
        "image": "LJTEST.jpg",
        "name": "test LJ",
        "region": "Osrednjeslovenska"
      },
      "geometry": {
        "type": "Point",
        "coordinates": [
          14.480590862008626,
          46.076224099984046
        ]
      }
    },
    {
      "id": "207",
      "type": "Feature",
      "properties": {
        "category": "monument",
        "id": "208",
        "image": "piran_old_town.jpg",
        "name": "Piran Old Town",
        "region": "Obalno-kraška"
      },
      "geometry": {
        "type": "Point",
        "coordinates": [
          13.5681,
          45.5285
        ]
      }
    },
    {
      "id": "208",
      "type": "Feature",
      "properties": {
        "category": "cave",
        "id": "209",
        "image": "postojna_cave.jpg",
        "name": "Postojna Cave",
        "region": "Primorsko-notranjska"
      },
      "geometry": {
        "type": "Point",
        "coordinates": [
          14.2039,
          45.7818
        ]
      }
    },
    {
      "id": "209",
      "type": "Feature",
      "properties": {
        "category": "valley",
        "id": "210",
        "image": "logarska_valley.jpg",
        "name": "Logarska Valley",
        "region": "Savinjska"
      },
      "geometry": {
        "type": "Point",
        "coordinates": [
          14.6346,
          46.3903
        ]
      }
    },
    {
      "id": "211",
      "type": "Feature",
      "properties": {
        "category": "castle",
        "id": "212",
        "image": "maribor_castle.jpg",
        "name": "Maribor Castle",
        "region": "Podravska"
      },
      "geometry": {
        "type": "Point",
        "coordinates": [
          15.644,
          46.5583
        ]
      }
    },
    {
      "id": "213",
      "type": "Feature",
      "properties": {
        "category": "castle",
        "id": "214",
        "image": "murska_sobota_castle.jpg",
        "name": "Murska Sobota Castle",
        "region": "Pomurska"
      },
      "geometry": {
        "type": "Point",
        "coordinates": [
          16.1653,
          46.6577
        ]
      }
    },
    {
      "id": "214",
      "type": "Feature",
      "properties": {
        "category": "viewpoint",
        "id": "215",
        "image": "vinarium_tower.jpg",
        "name": "Vinarium Tower",
        "region": "Pomurska"
      },
      "geometry": {
        "type": "Point",
        "coordinates": [
          16.3201,
          46.6417
        ]
      }
    },
    {
      "id": "215",
      "type": "Feature",
      "properties": {
        "category": "park",
        "id": "216",
        "image": "bela_krajina_landscape_park.jpg",
        "name": "Bela krajina Landscape Park",
        "region": "Jugovzhodna Slovenija"
      },
      "geometry": {
        "type": "Point",
        "coordinates": [
          15.1958,
          45.5346
        ]
      }
    },
    {
      "id": "216",
      "type": "Feature",
      "properties": {
        "category": "castle",
        "id": "217",
        "image": "krško_castle.jpg",
        "name": "Krško Castle",
        "region": "Posavska"
      },
      "geometry": {
        "type": "Point",
        "coordinates": [
          15.4927,
          45.9596
        ]
      }
    },
    {
      "id": "217",
      "type": "Feature",
      "properties": {
        "category": "spa",
        "id": "218",
        "image": "laško_thermal_spa.jpg",
        "name": "Laško Thermal Spa",
        "region": "Savinjska"
      },
      "geometry": {
        "type": "Point",
        "coordinates": [
          15.2339,
          46.1512
        ]
      }
    },
    {
      "id": "218",
      "type": "Feature",
      "properties": {
        "category": "castle",
        "id": "219",
        "image": "ravne_castle.jpg",
        "name": "Ravne Castle",
        "region": "Koroška"
      },
      "geometry": {
        "type": "Point",
        "coordinates": [
          14.9662,
          46.5442
        ]
      }
    },
    {
      "id": "219",
      "type": "Feature",
      "properties": {
        "category": "lake",
        "id": "220",
        "image": "bukovnica_lake.jpg",
        "name": "Bukovnica Lake",
        "region": "Pomurska"
      },
      "geometry": {
        "type": "Point",
        "coordinates": [
          16.2917,
          46.6844
        ]
      }
    },
    {
      "id": "220",
      "type": "Feature",
      "properties": {
        "category": "lake",
        "id": "221",
        "image": "druzmirje_lake.jpg",
        "name": "Družmirje lake",
        "region": "Savinjska"
      },
      "geometry": {
        "type": "Point",
        "coordinates": [
          15.065282,
          46.378904
        ]
      }
    },
    {
      "id": "221",
      "type": "Feature",
      "properties": {
        "category": "castle",
        "id": "222",
        "image": "lendava_castle.jpg",
        "name": "Lendava Castle",
        "region": "Pomurska"
      },
      "geometry": {
        "type": "Point",
        "coordinates": [
          16.4519,
          46.5651
        ]
      }
    },
    {
      "id": "222",
      "type": "Feature",
      "properties": {
        "category": "park",
        "id": "223",
        "image": "tromejnik_park.jpg",
        "name": "Tromejnik Park",
        "region": "Pomurska"
      },
      "geometry": {
        "type": "Point",
        "coordinates": [
          16.1527,
          46.8401
        ]
      }
    },
    {
      "id": "223",
      "type": "Feature",
      "properties": {
        "category": "castle",
        "id": "224",
        "image": "gornja_radgona_castle.jpg",
        "name": "Gornja Radgona Castle",
        "region": "Pomurska"
      },
      "geometry": {
        "type": "Point",
        "coordinates": [
          15.98224,
          46.682897
        ]
      }
    },
    {
      "id": "226",
      "type": "Feature",
      "properties": {
        "category": "viewpoint",
        "id": "227",
        "image": "doma.jpg",
        "name": "Test doma",
        "region": "Savinjska"
      },
      "geometry": {
        "type": "Point",
        "coordinates": [
          15.045226067505467,
          46.3767485468112
        ]
      }
    },
    {
      "id": "227",
      "type": "Feature",
      "properties": {
        "category": "park",
        "id": "228",
        "image": "gornja_radgona_city_park.jpg",
        "name": "Gornja Radgona City Park",
        "region": "Pomurska"
      },
      "geometry": {
        "type": "Point",
        "coordinates": [
          15.997039,
          46.676876
        ]
      }
    },
    {
      "id": "229",
      "type": "Feature",
      "properties": {
        "category": "museum",
        "id": "230",
        "image": "straw_hat_museum.jpg",
        "name": "Straw Hat Museum",
        "region": "Osrednjeslovenska"
      },
      "geometry": {
        "type": "Point",
        "coordinates": [
          14.595,
          46.1428
        ]
      }
    },
    
    {
      "id": "236",
      "type": "Feature",
      "properties": {
        "category": "lake",
        "id": "237",
        "image": "",
        "name": "Blejsko jezero",
        "region": "Gorenjska"
      },
      "geometry": {
        "type": "Point",
        "coordinates": [
          14.0952477,
          46.3639029
        ]
      }
    },
    {
      "id": "237",
      "type": "Feature",
      "properties": {
        "category": "lake",
        "id": "238",
        "image": "",
        "name": "Virški bajerji",
        "region": "Gorenjska"
      },
      "geometry": {
        "type": "Point",
        "coordinates": [
          14.4730902,
          46.2652367
        ]
      }
    },
    {
      "id": "238",
      "type": "Feature",
      "properties": {
        "category": "lake",
        "id": "239",
        "image": "",
        "name": "Močivec",
        "region": "Gorenjska"
      },
      "geometry": {
        "type": "Point",
        "coordinates": [
          13.7795002,
          46.3202749
        ]
      }
    },
    {
      "id": "239",
      "type": "Feature",
      "properties": {
        "category": "lake",
        "id": "240",
        "image": "",
        "name": "Dvojno jezero",
        "region": "Gorenjska"
      },
      "geometry": {
        "type": "Point",
        "coordinates": [
          13.7792558,
          46.3163332
        ]
      }
    },
    {
      "id": "240",
      "type": "Feature",
      "properties": {
        "category": "lake",
        "id": "241",
        "image": "",
        "name": "Dvojno jezero - sezonski del",
        "region": "Gorenjska"
      },
      "geometry": {
        "type": "Point",
        "coordinates": [
          13.7800499,
          46.3162605
        ]
      }
    },
    {
      "id": "241",
      "type": "Feature",
      "properties": {
        "category": "lake",
        "id": "242",
        "image": "",
        "name": "Šobčev Bajer",
        "region": "Gorenjska"
      },
      "geometry": {
        "type": "Point",
        "coordinates": [
          14.1508445,
          46.3536303
        ]
      }
    },
    {
      "id": "242",
      "type": "Feature",
      "properties": {
        "category": "lake",
        "id": "243",
        "image": "",
        "name": "Virški bajerji",
        "region": "Gorenjska"
      },
      "geometry": {
        "type": "Point",
        "coordinates": [
          14.4720459,
          46.2667475
        ]
      }
    },
    {
      "id": "243",
      "type": "Feature",
      "properties": {
        "category": "lake",
        "id": "244",
        "image": "",
        "name": "Bohinjsko jezero",
        "region": "Gorenjska"
      },
      "geometry": {
        "type": "Point",
        "coordinates": [
          13.8587525,
          46.2822667
        ]
      }
    },
    {
      "id": "244",
      "type": "Feature",
      "properties": {
        "category": "lake",
        "id": "245",
        "image": "",
        "name": "Tržiška Bistrica",
        "region": "Gorenjska"
      },
      "geometry": {
        "type": "Point",
        "coordinates": [
          14.2712688,
          46.2804249
        ]
      }
    },
    {
      "id": "245",
      "type": "Feature",
      "properties": {
        "category": "lake",
        "id": "246",
        "image": "",
        "name": "Zajezitveno jezero HE Moste",
        "region": "Gorenjska"
      },
      "geometry": {
        "type": "Point",
        "coordinates": [
          14.1082196,
          46.4161769
        ]
      }
    },
    {
      "id": "246",
      "type": "Feature",
      "properties": {
        "category": "lake",
        "id": "247",
        "image": "",
        "name": "Jasna",
        "region": "Gorenjska"
      },
      "geometry": {
        "type": "Point",
        "coordinates": [
          13.7837594,
          46.4741355
        ]
      }
    },
    {
      "id": "247",
      "type": "Feature",
      "properties": {
        "category": "lake",
        "id": "248",
        "image": "",
        "name": "Virški bajerji",
        "region": "Gorenjska"
      },
      "geometry": {
        "type": "Point",
        "coordinates": [
          14.4722978,
          46.266802
        ]
      }
    },
    {
      "id": "248",
      "type": "Feature",
      "properties": {
        "category": "lake",
        "id": "249",
        "image": "",
        "name": "Javorniško jezero",
        "region": "Gorenjska"
      },
      "geometry": {
        "type": "Point",
        "coordinates": [
          14.1022824,
          46.4573285
        ]
      }
    },
    {
      "id": "249",
      "type": "Feature",
      "properties": {
        "category": "lake",
        "id": "250",
        "image": "",
        "name": "Jezero na Planini pri Jezeru",
        "region": "Gorenjska"
      },
      "geometry": {
        "type": "Point",
        "coordinates": [
          13.8273095,
          46.3110574
        ]
      }
    },
    {
      "id": "250",
      "type": "Feature",
      "properties": {
        "category": "lake",
        "id": "251",
        "image": "",
        "name": "Umetno jezero",
        "region": "Gorenjska"
      },
      "geometry": {
        "type": "Point",
        "coordinates": [
          13.779018,
          46.3194398
        ]
      }
    },
    {
      "id": "251",
      "type": "Feature",
      "properties": {
        "category": "lake",
        "id": "252",
        "image": "",
        "name": "Rjavo jezero",
        "region": "Gorenjska"
      },
      "geometry": {
        "type": "Point",
        "coordinates": [
          13.795616,
          46.3554897
        ]
      }
    },
    {
      "id": "252",
      "type": "Feature",
      "properties": {
        "category": "lake",
        "id": "253",
        "image": "",
        "name": "Jezero v Ledvicah",
        "region": "Gorenjska"
      },
      "geometry": {
        "type": "Point",
        "coordinates": [
          13.7824028,
          46.3406694
        ]
      }
    },
    {
      "id": "253",
      "type": "Feature",
      "properties": {
        "category": "lake",
        "id": "254",
        "image": "",
        "name": "Završniško jezero",
        "region": "Gorenjska"
      },
      "geometry": {
        "type": "Point",
        "coordinates": [
          14.1485136,
          46.4068581
        ]
      }
    },
    {
      "id": "254",
      "type": "Feature",
      "properties": {
        "category": "lake",
        "id": "255",
        "image": "",
        "name": "Zeleno jezero",
        "region": "Gorenjska"
      },
      "geometry": {
        "type": "Point",
        "coordinates": [
          13.7947274,
          46.3512102
        ]
      }
    },
    {
      "id": "255",
      "type": "Feature",
      "properties": {
        "category": "lake",
        "id": "256",
        "image": "",
        "name": "Jezero pod Vršaki",
        "region": "Gorenjska"
      },
      "geometry": {
        "type": "Point",
        "coordinates": [
          13.7975214,
          46.3498582
        ]
      }
    },
    {
      "id": "256",
      "type": "Feature",
      "properties": {
        "category": "lake",
        "id": "257",
        "image": "",
        "name": "Črno jezero",
        "region": "Gorenjska"
      },
      "geometry": {
        "type": "Point",
        "coordinates": [
          13.7955147,
          46.2984237
        ]
      }
    },
    {
      "id": "257",
      "type": "Feature",
      "properties": {
        "category": "lake",
        "id": "258",
        "image": "",
        "name": "Ceglovnica",
        "region": "Gorenjska"
      },
      "geometry": {
        "type": "Point",
        "coordinates": [
          14.3259449,
          46.2335356
        ]
      }
    },
    {
      "id": "258",
      "type": "Feature",
      "properties": {
        "category": "lake",
        "id": "259",
        "image": "",
        "name": "Kreda",
        "region": "Gorenjska"
      },
      "geometry": {
        "type": "Point",
        "coordinates": [
          13.9286994,
          46.4487548
        ]
      }
    },
    {
      "id": "259",
      "type": "Feature",
      "properties": {
        "category": "lake",
        "id": "260",
        "image": "",
        "name": "Močila",
        "region": "Gorenjska"
      },
      "geometry": {
        "type": "Point",
        "coordinates": [
          14.1081555,
          46.4765615
        ]
      }
    },
    {
      "id": "260",
      "type": "Feature",
      "properties": {
        "category": "lake",
        "id": "261",
        "image": "",
        "name": "Močila",
        "region": "Gorenjska"
      },
      "geometry": {
        "type": "Point",
        "coordinates": [
          13.9909229,
          46.3415832
        ]
      }
    },
    {
      "id": "261",
      "type": "Feature",
      "properties": {
        "category": "lake",
        "id": "262",
        "image": "",
        "name": "Planšarsko jezero",
        "region": "Gorenjska"
      },
      "geometry": {
        "type": "Point",
        "coordinates": [
          14.5161074,
          46.4031069
        ]
      }
    },
    {
      "id": "262",
      "type": "Feature",
      "properties": {
        "category": "lake",
        "id": "263",
        "image": "",
        "name": "Ledine",
        "region": "Gorenjska"
      },
      "geometry": {
        "type": "Point",
        "coordinates": [
          13.7196802,
          46.4919345
        ]
      }
    },
    {
      "id": "263",
      "type": "Feature",
      "properties": {
        "category": "lake",
        "id": "264",
        "image": "",
        "name": "Ribnik Race",
        "region": "Gorenjska"
      },
      "geometry": {
        "type": "Point",
        "coordinates": [
          14.3255574,
          46.2877129
        ]
      }
    },
    {
      "id": "264",
      "type": "Feature",
      "properties": {
        "category": "lake",
        "id": "265",
        "image": "",
        "name": "Ribnik Race",
        "region": "Gorenjska"
      },
      "geometry": {
        "type": "Point",
        "coordinates": [
          14.324134,
          46.288617
        ]
      }
    },
    {
      "id": "265",
      "type": "Feature",
      "properties": {
        "category": "lake",
        "id": "266",
        "image": "",
        "name": "Čukova jama",
        "region": "Gorenjska"
      },
      "geometry": {
        "type": "Point",
        "coordinates": [
          14.3611302,
          46.2735816
        ]
      }
    },
    {
      "id": "266",
      "type": "Feature",
      "properties": {
        "category": "lake",
        "id": "267",
        "image": "",
        "name": "Krokodilnica",
        "region": "Gorenjska"
      },
      "geometry": {
        "type": "Point",
        "coordinates": [
          14.3605433,
          46.2756124
        ]
      }
    },
    {
      "id": "267",
      "type": "Feature",
      "properties": {
        "category": "lake",
        "id": "268",
        "image": "",
        "name": "Ledvička",
        "region": "Gorenjska"
      },
      "geometry": {
        "type": "Point",
        "coordinates": [
          14.3621928,
          46.2755989
        ]
      }
    },
    {
      "id": "268",
      "type": "Feature",
      "properties": {
        "category": "lake",
        "id": "269",
        "image": "",
        "name": "Črnava",
        "region": "Gorenjska"
      },
      "geometry": {
        "type": "Point",
        "coordinates": [
          14.4260209,
          46.3038763
        ]
      }
    },
    {
      "id": "269",
      "type": "Feature",
      "properties": {
        "category": "lake",
        "id": "270",
        "image": "",
        "name": "Kreda",
        "region": "Gorenjska"
      },
      "geometry": {
        "type": "Point",
        "coordinates": [
          13.991793,
          46.4164087
        ]
      }
    },
    {
      "id": "270",
      "type": "Feature",
      "properties": {
        "category": "lake",
        "id": "271",
        "image": "",
        "name": "Ribnik Lahovče",
        "region": "Gorenjska"
      },
      "geometry": {
        "type": "Point",
        "coordinates": [
          14.5099416,
          46.2255199
        ]
      }
    },
    {
      "id": "271",
      "type": "Feature",
      "properties": {
        "category": "lake",
        "id": "272",
        "image": "",
        "name": "Grofov bajer",
        "region": "Gorenjska"
      },
      "geometry": {
        "type": "Point",
        "coordinates": [
          14.1456257,
          46.3303714
        ]
      }
    },
    {
      "id": "272",
      "type": "Feature",
      "properties": {
        "category": "lake",
        "id": "273",
        "image": "",
        "name": "Trbojsko jezero",
        "region": "Gorenjska"
      },
      "geometry": {
        "type": "Point",
        "coordinates": [
          14.4036518,
          46.1992306
        ]
      }
    },
   
    {
      "id": "274",
      "type": "Feature",
      "properties": {
        "category": "lake",
        "id": "275",
        "image": "",
        "name": "Akumulacijsko jezero Vogršček",
        "region": "Goriška"
      },
      "geometry": {
        "type": "Point",
        "coordinates": [
          13.7395557,
          45.9067883
        ]
      }
    },
    {
      "id": "275",
      "type": "Feature",
      "properties": {
        "category": "lake",
        "id": "276",
        "image": "",
        "name": "Plužensko jezero",
        "region": "Goriška"
      },
      "geometry": {
        "type": "Point",
        "coordinates": [
          13.5135602,
          46.3336246
        ]
      }
    },
    {
      "id": "276",
      "type": "Feature",
      "properties": {
        "category": "lake",
        "id": "277",
        "image": "",
        "name": "Srednje Kriško jezero",
        "region": "Goriška"
      },
      "geometry": {
        "type": "Point",
        "coordinates": [
          13.8026782,
          46.403368
        ]
      }
    },
    {
      "id": "277",
      "type": "Feature",
      "properties": {
        "category": "lake",
        "id": "278",
        "image": "",
        "name": "Zgornje Kriško jezero",
        "region": "Goriška"
      },
      "geometry": {
        "type": "Point",
        "coordinates": [
          13.8052802,
          46.4085853
        ]
      }
    },
    {
      "id": "278",
      "type": "Feature",
      "properties": {
        "category": "lake",
        "id": "279",
        "image": "",
        "name": "Spodnje Kriško jezero",
        "region": "Goriška"
      },
      "geometry": {
        "type": "Point",
        "coordinates": [
          13.8023108,
          46.3992365
        ]
      }
    },
    {
      "id": "279",
      "type": "Feature",
      "properties": {
        "category": "lake",
        "id": "280",
        "image": "",
        "name": "Jezero v Lužnici",
        "region": "Goriška"
      },
      "geometry": {
        "type": "Point",
        "coordinates": [
          13.6856202,
          46.2552553
        ]
      }
    },
    {
      "id": "280",
      "type": "Feature",
      "properties": {
        "category": "lake",
        "id": "281",
        "image": "",
        "name": "Godoviški bajer",
        "region": "Goriška"
      },
      "geometry": {
        "type": "Point",
        "coordinates": [
          14.0866734,
          45.952697
        ]
      }
    },
    {
      "id": "281",
      "type": "Feature",
      "properties": {
        "category": "lake",
        "id": "282",
        "image": "",
        "name": "Jezero pod Vršacem",
        "region": "Goriška"
      },
      "geometry": {
        "type": "Point",
        "coordinates": [
          13.7980975,
          46.3596074
        ]
      }
    },
    {
      "id": "282",
      "type": "Feature",
      "properties": {
        "category": "lake",
        "id": "283",
        "image": "",
        "name": "Krnsko jezero",
        "region": "Goriška"
      },
      "geometry": {
        "type": "Point",
        "coordinates": [
          13.6830733,
          46.2851177
        ]
      }
    },
    {
      "id": "283",
      "type": "Feature",
      "properties": {
        "category": "lake",
        "id": "284",
        "image": "",
        "name": "Divje Jezero",
        "region": "Goriška"
      },
      "geometry": {
        "type": "Point",
        "coordinates": [
          14.0283217,
          45.9819933
        ]
      }
    },
    {
      "id": "284",
      "type": "Feature",
      "properties": {
        "category": "lake",
        "id": "285",
        "image": "",
        "name": "Bajer",
        "region": "Goriška"
      },
      "geometry": {
        "type": "Point",
        "coordinates": [
          13.739975,
          45.8964602
        ]
      }
    },
    {
      "id": "285",
      "type": "Feature",
      "properties": {
        "category": "lake",
        "id": "286",
        "image": "",
        "name": "Četrto Kriško jezero",
        "region": "Goriška"
      },
      "geometry": {
        "type": "Point",
        "coordinates": [
          13.8065589,
          46.4051714
        ]
      }
    },
    {
      "id": "286",
      "type": "Feature",
      "properties": {
        "category": "lake",
        "id": "287",
        "image": "",
        "name": "Kal",
        "region": "Goriška"
      },
      "geometry": {
        "type": "Point",
        "coordinates": [
          13.6067764,
          45.8619748
        ]
      }
    },
    {
      "id": "287",
      "type": "Feature",
      "properties": {
        "category": "lake",
        "id": "288",
        "image": "",
        "name": "Mlaka na Planini Duplje",
        "region": "Goriška"
      },
      "geometry": {
        "type": "Point",
        "coordinates": [
          13.6933169,
          46.2855785
        ]
      }
    },
    {
      "id": "288",
      "type": "Feature",
      "properties": {
        "category": "lake",
        "id": "289",
        "image": "",
        "name": "Dupeljsko Jezero",
        "region": "Goriška"
      },
      "geometry": {
        "type": "Point",
        "coordinates": [
          13.6980467,
          46.2888499
        ]
      }
    },
    {
      "id": "289",
      "type": "Feature",
      "properties": {
        "category": "lake",
        "id": "290",
        "image": "",
        "name": "Akumulacijsko jezero ČHE Avče",
        "region": "Goriška"
      },
      "geometry": {
        "type": "Point",
        "coordinates": [
          13.6674851,
          46.0840922
        ]
      }
    },
    {
      "id": "290",
      "type": "Feature",
      "properties": {
        "category": "lake",
        "id": "291",
        "image": "",
        "name": "Slap Virje",
        "region": "Goriška"
      },
      "geometry": {
        "type": "Point",
        "coordinates": [
          13.514038,
          46.3349908
        ]
      }
    },
    {
      "id": "291",
      "type": "Feature",
      "properties": {
        "category": "lake",
        "id": "292",
        "image": "",
        "name": "Močilo na Kalu",
        "region": "Goriška"
      },
      "geometry": {
        "type": "Point",
        "coordinates": [
          13.7703529,
          46.1102813
        ]
      }
    },
    {
      "id": "292",
      "type": "Feature",
      "properties": {
        "category": "lake",
        "id": "293",
        "image": "",
        "name": "Tolmun potoka slatna",
        "region": "Goriška"
      },
      "geometry": {
        "type": "Point",
        "coordinates": [
          13.656065,
          46.0107608
        ]
      }
    },